{
  "center": {"lat": 34.9967, "lng": 139.8697, "label": "館山駅"},
  "sunset": [
    {"name": "北条海岸", "lat": 34.9955, "lng": 139.8635, "note": "夕陽と富士山"},
    {"name": "沖ノ島", "lat": 34.9793, "lng": 139.8262, "note": "海に囲まれた無人島の夕景"},
    {"name": "洲埼灯台", "lat": 34.9855, "lng": 139.7720, "note": "東京湾越しの夕陽・推定座標"},
    {"name": "平砂浦海岸", "lat": 34.9360, "lng": 139.8270, "note": "広大な砂浜の夕景・推定座標"},
    {"name": "波左間海岸", "lat": 34.9922, "lng": 139.8060, "note": "西向き海岸の夕陽・推定座標"},
    {"name": "見物海岸", "lat": 35.0075, "lng": 139.8360, "note": "夕陽と富士山の名所・推定座標"},
    {"name": "那古海岸", "lat": 35.0100, "lng": 139.8490, "note": "遠浅の海岸から夕景・推定座標"}
  ],
  "cafe": [
    {"name": "SEA DAYS COFFEE", "lat": 34.9950, "lng": 139.8640, "note": "北条海岸沿いの海が見えるカフェ"},
    {"name": "TRAYCLE Market & Coffee", "lat": 35.0005, "lng": 139.8650, "note": "築100年の古民家をリノベしたカフェ・推定座標"},
    {"name": "カフェデルマ", "lat": 34.9975, "lng": 139.8675, "note": "館山駅近く・とろとろオムライスが人気・推定座標"},
    {"name": "珈琲 九雲", "lat": 34.9050, "lng": 139.8250, "note": "布良漁港を望む古民家カフェ・推定座標"},
    {"name": "ALRIGHT COFFEE ROASTERS", "lat": 34.9970, "lng": 139.8690, "note": "自家焙煎コーヒー・推定座標"},
    {"name": "ブロワ珈琲焙煎所", "lat": 34.9900, "lng": 139.8700, "note": "自家焙煎珈琲店・推定座標"},
    {"name": "珈琲館サルビア", "lat": 34.9960, "lng": 139.8680, "note": "老舗喫茶店・推定座標"}
  ],
  "convenience": [
    {"name": "セブン-イレブン館山駅前店", "lat": 34.9970, "lng": 139.8690},
    {"name": "セブン-イレブン館山北条店", "lat": 34.9930, "lng": 139.8720},
    {"name": "セブン-イレブン館山那古海岸店", "lat": 35.0060, "lng": 139.8540},
    {"name": "ファミリーマート館山駅東口店", "lat": 34.9965, "lng": 139.8702},
    {"name": "ファミリーマート館山北条店", "lat": 35.0030, "lng": 139.8600},
    {"name": "ファミリーマート館山バイパス店", "lat": 34.9850, "lng": 139.8760},
    {"name": "ローソン館山北条店", "lat": 34.9945, "lng": 139.8710},
    {"name": "ローソン館山八幡店", "lat": 34.9935, "lng": 139.8680}
  ],
  "supermarket": [
    {"name": "ODOYA スーパーセンター館山店", "lat": 34.9880, "lng": 139.8760},
    {"name": "おどや館山海岸店", "lat": 34.9950, "lng": 139.8650},
    {"name": "おどや北条店", "lat": 34.9920, "lng": 139.8700},
    {"name": "おどや大神宮店", "lat": 34.9250, "lng": 139.8450},
    {"name": "ベイシアフーズパーク館山店", "lat": 35.0100, "lng": 139.8730},
    {"name": "業務スーパー館山店", "lat": 34.9900, "lng": 139.8730}
  ],
  "landmark": [
    {"name": "館山駅", "lat": 34.9967, "lng": 139.8697, "note": "JR内房線の玄関口"},
    {"name": "館山城（城山公園）", "lat": 34.9840, "lng": 139.8560, "note": "八犬伝博物館・展望の丘"},
    {"name": "渚の駅たてやま", "lat": 34.9930, "lng": 139.8570, "note": "海辺の観光施設・さかなクンギャラリー"},
    {"name": "道の駅グリーンファーム館山", "lat": 35.0180, "lng": 139.8790, "note": "2024年開業の食の拠点・推定座標"},
    {"name": "館山病院", "lat": 34.9950, "lng": 139.8660, "note": "市内中心部の総合病院・推定座標"},
    {"name": "沖ノ島公園", "lat": 34.9793, "lng": 139.8262, "note": "陸続きの無人島・磯遊びと自然"}
  ]
}
